{
  "ports": [
    {
      "id": "le-crouesty",
      "name": "Le Crouesty",
      "latitude": 47.5447,
      "longitude": -2.9042,
      "region": "Bretagne",
      "department": "Morbihan"
    },
    {
      "id": "vannes",
      "name": "Vannes",
      "latitude": 47.6586,
      "longitude": -2.7603,
      "region": "Bretagne",
      "department": "Morbihan"
    },
    {
      "id": "port-navalo",
      "name": "Port Navalo",
      "latitude": 47.4850,
      "longitude": -2.9142,
      "region": "Bretagne",
      "department": "Morbihan"
    },
    {
      "id": "la-trinite-sur-mer",
      "name": "La Trinité-sur-Mer",
      "latitude": 47.5886,
      "longitude": -3.0269,
      "region": "Bretagne",
      "department": "Morbihan"
    },
    {
      "id": "lorient",
      "name": "Lorient",
      "latitude": 47.7467,
      "longitude": -3.3617,
      "region": "Bretagne",
      "department": "Morbihan"
    },
    {
      "id": "quiberon",
      "name": "Quiberon",
      "latitude": 47.4842,
      "longitude": -3.1197,
      "region": "Bretagne",
      "department": "Morbihan"
    },
    {
      "id": "belle-ile",
      "name": "Belle-Île-en-Mer",
      "latitude": 47.3463,
      "longitude": -3.1581,
      "region": "Bretagne",
      "department": "Morbihan"
    },
    {
      "id": "concarneau",
      "name": "Concarneau",
      "latitude": 47.8700,
      "longitude": -3.9167,
      "region": "Bretagne",
      "department": "Finistère"
    },
    {
      "id": "brest",
      "name": "Brest",
      "latitude": 48.3832,
      "longitude": -4.4952,
      "region": "Bretagne",
      "department": "Finistère"
    },
    {
      "id": "douarnenez",
      "name": "Douarnenez",
      "latitude": 48.0936,
      "longitude": -4.3325,
      "region": "Bretagne",
      "department": "Finistère"
    },
    {
      "id": "saint-malo",
      "name": "Saint-Malo",
      "latitude": 48.6500,
      "longitude": -2.0260,
      "region": "Bretagne",
      "department": "Ille-et-Vilaine"
    },
    {
      "id": "dinard",
      "name": "Dinard",
      "latitude": 48.6333,
      "longitude": -2.0667,
      "region": "Bretagne",
      "department": "Ille-et-Vilaine"
    },
    {
      "id": "cancale",
      "name": "Cancale",
      "latitude": 48.6758,
      "longitude": -1.8522,
      "region": "Bretagne",
      "department": "Ille-et-Vilaine"
    },
    {
      "id": "paimpol",
      "name": "Paimpol",
      "latitude": 48.7814,
      "longitude": -3.0458,
      "region": "Bretagne",
      "department": "Côtes-d'Armor"
    },
    {
      "id": "perros-guirec",
      "name": "Perros-Guirec",
      "latitude": 48.8150,
      "longitude": -3.4450,
      "region": "Bretagne",
      "department": "Côtes-d'Armor"
    },
    {
      "id": "la-rochelle",
      "name": "La Rochelle",
      "latitude": 46.1590,
      "longitude": -1.1512,
      "region": "Nouvelle-Aquitaine",
      "department": "Charente-Maritime"
    },
    {
      "id": "ile-de-re",
      "name": "Île de Ré",
      "latitude": 46.2008,
      "longitude": -1.4289,
      "region": "Nouvelle-Aquitaine",
      "department": "Charente-Maritime"
    },
    {
      "id": "royan",
      "name": "Royan",
      "latitude": 45.6231,
      "longitude": -1.0281,
      "region": "Nouvelle-Aquitaine",
      "department": "Charente-Maritime"
    },
    {
      "id": "bayonne",
      "name": "Bayonne",
      "latitude": 43.4832,
      "longitude": -1.4914,
      "region": "Nouvelle-Aquitaine",
      "department": "Pyrénées-Atlantiques"
    },
    {
      "id": "biarritz",
      "name": "Biarritz",
      "latitude": 43.4832,
      "longitude": -1.5586,
      "region": "Nouvelle-Aquitaine",
      "department": "Pyrénées-Atlantiques"
    },
    {
      "id": "hendaye",
      "name": "Hendaye",
      "latitude": 43.3672,
      "longitude": -1.7744,
      "region": "Nouvelle-Aquitaine",
      "department": "Pyrénées-Atlantiques"
    },
    {
      "id": "arcachon",
      "name": "Arcachon",
      "latitude": 44.6581,
      "longitude": -1.1658,
      "region": "Nouvelle-Aquitaine",
      "department": "Gironde"
    },
    {
      "id": "cap-ferret",
      "name": "Cap Ferret",
      "latitude": 44.6311,
      "longitude": -1.2486,
      "region": "Nouvelle-Aquitaine",
      "department": "Gironde"
    },
    {
      "id": "les-sables-olonne",
      "name": "Les Sables-d'Olonne",
      "latitude": 46.4964,
      "longitude": -1.7833,
      "region": "Pays de la Loire",
      "department": "Vendée"
    },
    {
      "id": "ile-dyeu",
      "name": "Île d'Yeu",
      "latitude": 46.7167,
      "longitude": -2.3500,
      "region": "Pays de la Loire",
      "department": "Vendée"
    },
    {
      "id": "pornic",
      "name": "Pornic",
      "latitude": 47.1158,
      "longitude": -2.1039,
      "region": "Pays de la Loire",
      "department": "Loire-Atlantique"
    },
    {
      "id": "saint-nazaire",
      "name": "Saint-Nazaire",
      "latitude": 47.2733,
      "longitude": -2.2128,
      "region": "Pays de la Loire",
      "department": "Loire-Atlantique"
    },
    {
      "id": "le-pouliguen",
      "name": "Le Pouliguen",
      "latitude": 47.2711,
      "longitude": -2.4294,
      "region": "Pays de la Loire",
      "department": "Loire-Atlantique"
    },
    {
      "id": "la-baule",
      "name": "La Baule",
      "latitude": 47.2867,
      "longitude": -2.3914,
      "region": "Pays de la Loire",
      "department": "Loire-Atlantique"
    },
    {
      "id": "le-croisic",
      "name": "Le Croisic",
      "latitude": 47.2933,
      "longitude": -2.5142,
      "region": "Pays de la Loire",
      "department": "Loire-Atlantique"
    }
  ]
}
